[{"Name":"Shell Bukit Timah Hill","Address":"219 Upper Bukit Timah Road S588186","Amenities":"24, Select, Auto","Recharge":false,"Coordinates":"1.345900,103.772130"},{"Name":"Shell Dunearn Eng Neo","Address":"648, Dunearn Road S289629","Amenities":"24, Select, ATM","Recharge":false,"Coordinates":"1.330950,103.799088"},{"Name":"Shell Dunearn University","Address":"314 Dunearn Road S299551","Amenities":"24, Select, ATM, Recharge","Recharge":true,"Coordinates":"1.3233836,103.817211"},{"Name":"Shell Moulmein","Address":"103 Moulmein Road S308080","Amenities":"24, Select, Auto","Recharge":false,"Coordinates":"1.3188807,103.8498033"},{"Name":"Shell Newton Circus","Address":"143 Bukit Timah Road S229843","Amenities":"24, Select, Auto","Recharge":false,"Coordinates":"1.3109855,103.8422092"},{"Name":"Shell Newton Hooper Road","Address":"150 Bukit Timah Road S229846","Amenities":"24, Select, HW, Recharge","Recharge":true,"Coordinates":"1.3113138,103.843093"},{"Name":"Shell Serangoon Road","Address":"509 Serangoon Road S218152","Amenities":"24, Select, ATM","Recharge":false,"Coordinates":"1.3145675,103.8572805"},{"Name":"Shell Thomson Novena","Address":"324 Thomson Road S307672","Amenities":"24, Select, Auto, Recharge","Recharge":true,"Coordinates":"1.3241824,103.8421185"},{"Name":"Shell Ang Mo Kio Avenue 6","Address":"3535 Ang Mo Kio Ave 6 S569839","Amenities":"24, Select, HW, ATM, Recharge&nbsp;","Recharge":true,"Coordinates":"1.3765569,103.8450682"},{"Name":"Shell Braddell","Address":"110 Braddell Road S359914","Amenities":"24, Select, HW, ATM, Recharge","Recharge":true,"Coordinates":"1.3445414,103.8646073"},{"Name":"Shell Lake View","Address":"80 Upper Thomson Road S574326","Amenities":"24, Select","Recharge":false,"Coordinates":"1.3484698,103.8385906"},{"Name":"Shell Peirce Reservoir","Address":"551 Upper Thomson Road S574415","Amenities":"24, Select","Recharge":false,"Coordinates":"1.3698889,103.8278812"},{"Name":"Shell Seletar Hills","Address":"298 Yio Chu Kang Road S805908","Amenities":"24, Select, ATM","Recharge":false,"Coordinates":"1.3837092,103.8770875"},{"Name":"Shell Sembawang","Address":"595 Sembawang Road S758454","Amenities":"24, Select, Auto","Recharge":false,"Coordinates":"1.4406178,103.8244401"},{"Name":"Shell Serangoon Garden","Address":"49 Serangoon Garden Way S555944","Amenities":"24, Select, Auto, HW, Recharge","Recharge":true,"Coordinates":"1.3632352,103.8673705"},{"Name":"Shell Sin Ming","Address":"183A Upper Thomson Road S574332","Amenities":"24, Select","Recharge":false,"Coordinates":"1.3512683,103.8354918"},{"Name":"Shell Toa Payoh","Address":"248 Lor 1 Toa Payoh S319755","Amenities":"24, Select, Auto, HW, ATM, DbS","Recharge":false,"Coordinates":"1.3411375,103.8486859"},{"Name":"Shell Upper Thomson Mandai","Address":"1200 Upper Thomson Road S787124","Amenities":"24, Select, Auto","Recharge":false,"Coordinates":"1.3725206,103.8285173"},{"Name":"Shell Woodlands Ave 9","Address":"20 Woodlands Ave 9 S738954","Amenities":"24, Select, ATM","Recharge":false,"Coordinates":"1.4443631,103.7900217"},{"Name":"Shell Woodlands Mandai","Address":"695 Mandai Road S729752","Amenities":"Select","Recharge":false,"Coordinates":"1.411321,103.7565357"},{"Name":"Shell Yio Chu Kang","Address":"158 Yio Chu Kang Road S545612","Amenities":"24, Select","Recharge":false,"Coordinates":"1.3606496,103.8739062"},{"Name":"Shell Yishun Ave 5","Address":"1 Yishun Street 11 S768642","Amenities":"24, Select, HW, Recharge","Recharge":true,"Coordinates":"1.4308124,103.8329278"},{"Name":"Shell Alexandra","Address":"358 Alexandra Road S159950","Amenities":"24, Select, HW, Recharge","Recharge":true,"Coordinates":"1.2906332,103.8068428"},{"Name":"Shell Bukit Panjang","Address":"772 Upper Bukit Timah Road S678122","Amenities":"24, Select, Auto, ATM","Recharge":false,"Coordinates":"1.3723075,103.7634489"},{"Name":"Shell Commonwealth/Stirling Rd","Address":"355 Commonwealth Ave S149731","Amenities":"24, Select, Auto","Recharge":false,"Coordinates":"1.2975968,103.80331"},{"Name":"Shell Havelock","Address":"548 Havelock Road S169637","Amenities":"24, Select, ATM, Recharge","Recharge":true,"Coordinates":"1.2899571,103.8324041"},{"Name":"Shell Outram 305","Address":"305 Outram Road S169072","Amenities":"24, Select, ATM","Recharge":false,"Coordinates":"1.2868381,103.834442"},{"Name":"Shell Queensway Anchorage","Address":"260 Queensway S149060","Amenities":"24, Select","Recharge":false,"Coordinates":"1.2893335,103.8030384"},{"Name":"Shell Telok Blangah","Address":"450 Telok Blangah Road S098857","Amenities":"24, Select, Auto, ATM","Recharge":false,"Coordinates":"1.2704565,103.8127722"},{"Name":"Shell Tiong Bahru","Address":"603 Tiong Bahru Road S158788","Amenities":"24, Select, Auto, ATM","Recharge":false,"Coordinates":"1.2884921,103.8196336"},{"Name":"Shell Upper Bukit Timah PIE","Address":"35 Upper Bukit Timah Road S588166","Amenities":"24, Select, HW","Recharge":false,"Coordinates":"1.3385659,103.7769836"},{"Name":"Shell Changi Kembangan","Address":"460 Changi Road S419883","Amenities":"24, Select","Recharge":false,"Coordinates":"1.3188139,103.9128849"},{"Name":"Shell Dunman","Address":"743 Dunman Road S439241","Amenities":"24, Select, Auto, ATM, Recharge","Recharge":true,"Coordinates":"1.309839,103.9011338"},{"Name":"Shell East Coast","Address":"338 East Coast Road S428961","Amenities":"24, Select, HW, ATM, DbS","Recharge":false,"Coordinates":"1.308194,103.909739"},{"Name":"Shell Geylang Lor 7","Address":"203 Geylang Road S389266","Amenities":"24, Select, HW, ATM","Recharge":false,"Coordinates":"1.312054,103.8755513"},{"Name":"Shell Guillemard","Address":"132 Guillemard Road S399720","Amenities":"24, Select, HW","Recharge":false,"Coordinates":"1.3106081,103.8838043"},{"Name":"Shell Hougang","Address":"600 Hougang Ave 3, S538846","Amenities":"24, Select, HW, ATM","Recharge":false,"Coordinates":"1.3493329,103.8901426"},{"Name":"Shell Macpherson","Address":"259 Macpherson Road S348584","Amenities":"24, Select","Recharge":false,"Coordinates":"1.3310919,103.8777589"},{"Name":"Shell Pasir Ris","Address":"1 New Loyang Link S506931","Amenities":"24, Select, ATM, DbS","Recharge":false,"Coordinates":"1.3655932,103.9673141"},{"Name":"Shell Paya Lebar Macpherson","Address":"255 Paya Lebar Road S409037","Amenities":"24, Select, Auto, HW, ATM, Recharge","Recharge":true,"Coordinates":"1.331794,103.8887307"},{"Name":"Shell Paya Lebar PIE","Address":"98 Paya Lebar Road S409008","Amenities":"24, Select, Auto, HW, ATM, DbS, Recharge","Recharge":true,"Coordinates":"1.32166,103.8918029"},{"Name":"Shell Punggol","Address":"821 Punggol Road S829169","Amenities":"24, Select, HW, ATM, Recharge","Recharge":true,"Coordinates":"1.4044292,103.9065938"},{"Name":"Shell Sengkang","Address":"61 Sengkang East Road S545015","Amenities":"24, Select, Auto, ATM, DbS, Recharge","Recharge":true,"Coordinates":"1.3916522,103.8927167"},{"Name":"Shell Siglap","Address":"40 Upper East Coast Road S455212","Amenities":"24, Select, HW, ATM","Recharge":false,"Coordinates":"1.3125951,103.9265486"},{"Name":"Shell Simpang Bedok","Address":"331 Bedok Road S469504","Amenities":"24, Select, Auto","Recharge":false,"Coordinates":"1.3308566,103.9476548"},{"Name":"Shell Tampines Ave 2","Address":"9 Tampines Ave 2 S529731","Amenities":"24, Select, Auto, HW, ATM","Recharge":false,"Coordinates":"1.3491458,103.9476641"},{"Name":"Shell Tanjong Katong","Address":"191 Tanjong Katong Road S436993","Amenities":"24, Select, Auto, ATM","Recharge":false,"Coordinates":"1.3109736,103.8945187"},{"Name":"Shell Boon Lay","Address":"2 Boon Lay Avenue S649960","Amenities":"24, Select, Auto, HW, ATM, DbS, Recharge","Recharge":true,"Coordinates":"1.3440594,103.7077874"},{"Name":"Shell Bukit Batok Nature Park","Address":"28 Bukit Batok East Avenue 6 S659760","Amenities":"24, Select, Auto, HW, ATM, DbS, Recharge","Recharge":true,"Coordinates":"1.3477255,103.7648458"},{"Name":"Shell Bukit Batok Road","Address":"11 Bukit Batok West Avenue 3 S659166","Amenities":"24, Select, ATM, Recharge","Recharge":true,"Coordinates":"1.3502571,103.7383781"},{"Name":"Shell Choa Chu Kang","Address":"20 Choa Chu Kang Drive S689717","Amenities":"24, Select, ATM, Recharge","Recharge":true,"Coordinates":"1.3856025,103.7465211"},{"Name":"Shell Jalan Ahmad Ibrahim","Address":"311 Jalan Ahmad Ibrahim S619595","Amenities":"24, Select, ATM","Recharge":false,"Coordinates":"1.3235028,103.721767"},{"Name":"Shell Jurong West","Address":"21 Jurong West Ave 5 S649481","Amenities":"24, Select, HW, ATM","Recharge":false,"Coordinates":"1.3501047,103.701183"},{"Name":"Shell Marsiling","Address":"10 Marsiling Road S739109","Amenities":"24, Select, HW, ATM","Recharge":false,"Coordinates":"1.4382507,103.7753087"},{"Name":"Shell Pasir Panjang 168","Address":"168 Pasir Panjang Road S118556","Amenities":"24, Select","Recharge":false,"Coordinates":"1.277378,103.7896821"},{"Name":"Shell Pasir Panjang 328","Address":"328 Pasir Panjang Road S118654","Amenities":"24, Select","Recharge":false,"Coordinates":"1.2893262,103.7778664"},{"Name":"Shell Tuas","Address":"121 Tuas South Avenue 5 S637365","Amenities":"Select, ATM, Cash Out","Recharge":false,"Coordinates":"1.2891371,103.6255772"}]